{
  "data": {
    "restaurants": [
      {
        "id": "kNdv-g4T68wDHyT_EgbF8A",
        "imageUrl": "https://s3-media2.fl.yelpcdn.com/bphoto/swlTvEXL5yVRzlOPWo4tYw/o.jpg",
        "name": "Himalayan Spice",
        "rating": "5.0",
        "address": "4279 Tennsyon St, Denver, CO 80212",
        "lat": "39.77442708558098",
        "lon": "-105.04432613479163",
        "city": "Denver, CO",
        "__typename": "Restaurant"
      },
      {
        "id": "Sk89ZllCbWVqA4M_MoJ7Lg",
        "imageUrl": "https://s3-media2.fl.yelpcdn.com/bphoto/dgayoTjtDbOqndnV-PRszg/o.jpg",
        "name": "Noodles Express",
        "rating": "4.5",
        "address": "703 S Colorado Blvd, Denver, CO 80246",
        "lat": "39.70269",
        "lon": "-104.94143",
        "city": "Denver, CO",
        "__typename": "Restaurant"
      },
      {
        "id": "BqqesHM5ZounBdqLXpIruQ",
        "imageUrl": "https://s3-media3.fl.yelpcdn.com/bphoto/-aIpbhWh5s1qYiN18tueFA/o.jpg",
        "name": "Hey Bangkok!",
        "rating": "4.5",
        "address": "301 S Pennsylvania St, Denver, CO 80209",
        "lat": "39.7109567",
        "lon": "-104.981987",
        "city": "Denver, CO",
        "__typename": "Restaurant"
      },
      {
        "id": "RTvR4W7K-59xFFZAUTMTbQ",
        "imageUrl": "https://s3-media4.fl.yelpcdn.com/bphoto/sI1LfYfMkL0k-6f6U702VQ/o.jpg",
        "name": "Lucky Noodles",
        "rating": "4.5",
        "address": "1201 E Colfax Ave, Ste 102, Denver, CO 80218",
        "lat": "39.7402",
        "lon": "-104.97194",
        "city": "Denver, CO",
        "__typename": "Restaurant"
      },
      {
        "id": "Taw_YBKFGjfLEbeUejaXWg",
        "imageUrl": "https://s3-media4.fl.yelpcdn.com/bphoto/weDMpQLRtwWkPsQ2kd3g5w/o.jpg",
        "name": "Clawful",
        "rating": "4.5",
        "address": "1862 S Wadsworth Blvd, Denver, CO 80232",
        "lat": "39.683612",
        "lon": "-105.079427",
        "city": "Denver, CO",
        "__typename": "Restaurant"
      },
      {
        "id": "gN8o-SG2PgCQGYrOCkkqng",
        "imageUrl": "https://s3-media4.fl.yelpcdn.com/bphoto/dbP1saUSalUP1174JyxgtA/o.jpg",
        "name": "Liang's Thai Food",
        "rating": "4.5",
        "address": "16TH St And California St, Denver, CO 80202",
        "lat": "39.74521",
        "lon": "-104.9921817",
        "city": "Denver, CO",
        "__typename": "Restaurant"
      },
      {
        "id": "6kRbrLNIZKZ1fcjgsTFobg",
        "imageUrl": "https://s3-media1.fl.yelpcdn.com/bphoto/aVmP8cWwrCsLWWjwx8wvjg/o.jpg",
        "name": "Fortune Wok to Table",
        "rating": "4.5",
        "address": "2817 E 3rd Ave, Denver, CO 80206",
        "lat": "39.72124",
        "lon": "-104.9543",
        "city": "Denver, CO",
        "__typename": "Restaurant"
      },
      {
        "id": "ST8MWTSCNOutSIQLkrNrhg",
        "imageUrl": "https://s3-media2.fl.yelpcdn.com/bphoto/JwzHVvBv3g9816rnrYZEww/o.jpg",
        "name": "SPICE ROOM | Neighborhood Indian Bistro",
        "rating": "4.5",
        "address": "3157 W 38th Ave, Denver, CO 80211",
        "lat": "39.769626",
        "lon": "-105.028993785381",
        "city": "Denver, CO",
        "__typename": "Restaurant"
      },
      {
        "id": "8N5j6YC9LiupGZbuMPm-ZA",
        "imageUrl": "https://s3-media2.fl.yelpcdn.com/bphoto/C7LzNi2JB4mL0R78IWXEKw/o.jpg",
        "name": "Coriander",
        "rating": "4.5",
        "address": "4968 N Tower Rd, Denver, CO 80249",
        "lat": "39.786902",
        "lon": "-104.771731",
        "city": "Denver, CO",
        "__typename": "Restaurant"
      },
      {
        "id": "VOhBjGoL12ss4f0pxBfoVA",
        "imageUrl": "https://s3-media2.fl.yelpcdn.com/bphoto/KZzxO_9sbWFj3C8hmhIWAg/o.jpg",
        "name": "Pepper Asian Bistro II",
        "rating": "4.5",
        "address": "3759 Lipan St, Denver, CO 80211",
        "lat": "39.769119",
        "lon": "-105.00202",
        "city": "Denver, CO",
        "__typename": "Restaurant"
      },
      {
        "id": "uATg5fmPJkOvCCbwK6Eiqg",
        "imageUrl": "https://s3-media2.fl.yelpcdn.com/bphoto/L3vLQ5KEsaQBBYc6WKjQbg/o.jpg",
        "name": "Taw Win Burmese Food",
        "rating": "4.5",
        "address": "1120 Yosemite St, Denver, CO 80247",
        "lat": "39.73338",
        "lon": "-104.88434",
        "city": "Denver, CO",
        "__typename": "Restaurant"
      },
      {
        "id": "-KFQJfkFxiCuF1DsXmKB_g",
        "imageUrl": "https://s3-media3.fl.yelpcdn.com/bphoto/QDphobrk3fx_x2yvv81GEg/o.jpg",
        "name": "Ros Siam",
        "rating": "4.5",
        "address": "2637 W 26th Ave, Denver, CO 80211",
        "lat": "39.755057",
        "lon": "-105.020173",
        "city": "Denver, CO",
        "__typename": "Restaurant"
      },
      {
        "id": "bg7oPbK-PNOhguUbWcvg0A",
        "imageUrl": "https://s3-media1.fl.yelpcdn.com/bphoto/lYYJR5HmVQszYpazh4aTyQ/o.jpg",
        "name": "Aung's Bangkok Cafe",
        "rating": "4.5",
        "address": "1225 E Hampden Ave, Englewood, CO 80113",
        "lat": "39.6532549",
        "lon": "-104.9732469",
        "city": "Englewood, CO",
        "__typename": "Restaurant"
      },
      {
        "id": "HBBs_ruVCXXaNc-8ZxyezQ",
        "imageUrl": "https://s3-media3.fl.yelpcdn.com/bphoto/A2Sd5m-1lWv2MtW9IYeE5A/o.jpg",
        "name": "Daughter Thai Kitchen \u0026 Bar",
        "rating": "4.5",
        "address": "1700 Platte St, Ste 140, Denver, CO 80202",
        "lat": "39.75848",
        "lon": "-105.00645",
        "city": "Denver, CO",
        "__typename": "Restaurant"
      },
      {
        "id": "yUXr2d9pomzJgmbPl8tlZQ",
        "imageUrl": "https://s3-media2.fl.yelpcdn.com/bphoto/j6qTLzzfT31F92HxwrH0ww/o.jpg",
        "name": "Q House",
        "rating": "4.5",
        "address": "3421 E Colfax Ave, Denver, CO 80206",
        "lat": "39.7403344229824",
        "lon": "-104.947235575533",
        "city": "Denver, CO",
        "__typename": "Restaurant"
      },
      {
        "id": "GapE3T0_qUYnMOWNpJcKMQ",
        "imageUrl": "https://s3-media1.fl.yelpcdn.com/bphoto/_wmO46PSfrHJl4u8mkbrFg/o.jpg",
        "name": "Himchuli RINO - Indian \u0026 Nepali Cuisine",
        "rating": "4.5",
        "address": "3490 Larimer St, Denver, CO 80205",
        "lat": "39.76672",
        "lon": "-104.97458",
        "city": "Denver, CO",
        "__typename": "Restaurant"
      },
      {
        "id": "lcS16U_UxGBieMthMp67Bw",
        "imageUrl": "https://s3-media1.fl.yelpcdn.com/bphoto/eLe4bwq32xOkc2f9MzEyrw/o.jpg",
        "name": "Woody's Wings N Things",
        "rating": "4.5",
        "address": "6817 Lowell Blvd, Westminster, CO 80221",
        "lat": "39.820522",
        "lon": "-105.035119",
        "city": "Westminster, CO",
        "__typename": "Restaurant"
      },
      {
        "id": "d1_nupmTxB7QqwXiR-glfQ",
        "imageUrl": "https://s3-media2.fl.yelpcdn.com/bphoto/SYG1ACvzlv27uRa2Xl9_BA/o.jpg",
        "name": "Ethiopian Restaurant",
        "rating": "4.5",
        "address": "2816 E Colfax Ave, Denver, CO 80206",
        "lat": "39.73997",
        "lon": "-104.95368",
        "city": "Denver, CO",
        "__typename": "Restaurant"
      },
      {
        "id": "G-sOJ-zEGbmpg2838jCmnw",
        "imageUrl": "https://s3-media1.fl.yelpcdn.com/bphoto/8kj4QKALCDzkE2zPO0c5CQ/o.jpg",
        "name": "Bonchon Buchtel Blvd",
        "rating": "4.5",
        "address": "3970 Buchtel Blvd, Ste 107, Denver, CO 80210",
        "lat": "39.67996",
        "lon": "-104.94112",
        "city": "Denver, CO",
        "__typename": "Restaurant"
      },
      {
        "id": "eOYc3PXkvrovPeuQnWognQ",
        "imageUrl": "https://s3-media1.fl.yelpcdn.com/bphoto/CzbzAT1SD9exma35ESPBUQ/o.jpg",
        "name": "Mehak India's Aroma",
        "rating": "4.5",
        "address": "250 Steele St, Ste 100, Denver, CO 80206",
        "lat": "39.7202229",
        "lon": "-104.9495863",
        "city": "Denver, CO",
        "__typename": "Restaurant"
      }
    ]
  }
}
